City_ID,City,Lat,Lng,Max Temp,Humidity,Cloudiness,Wind Speed,Country,Date
0,port-aux-francais,-49.35,70.2167,5.05,81,94,14.85,TF,1686488364
1,basmakci,37.8972,30.0117,17.05,58,58,3.52,TR,1686488364
2,adamstown,-25.066,-130.1015,20.67,62,76,6.97,PN,1686488124
3,baukau,51.5526,7.2042,31.83,37,76,2.68,DE,1686488364
4,olonkinbyen,70.9221,-8.7187,2.24,84,100,11.27,SJ,1686488364
5,kezmarok,49.1357,20.4335,16.81,77,40,6.69,SK,1686488365
6,keflavik,64.0049,-22.5624,9.24,76,100,8.23,IS,1686488365
7,sitka,57.0531,-135.33,8.94,87,75,2.06,US,1686488365
8,mandal,25.45,74.5667,39.65,17,93,4.72,IN,1686488365
9,grytviken,-54.2811,-36.5092,-0.91,86,88,6.33,GS,1686488365
10,carutapera,-1.195,-46.02,27.9,80,1,3.6,BR,1686488365
11,ushuaia,-54.8,-68.3,0.81,69,100,11.83,AR,1686488366
12,edinburgh of the seven seas,-37.0676,-12.3116,15.8,89,70,10.37,SH,1686488366
13,san patricio,28.017,-97.5169,28.92,81,0,6.04,US,1686488366
14,albany,42.6001,-73.9662,18.57,81,100,0.85,US,1686488209
15,blackmans bay,-43.0167,147.3167,9.18,90,89,2.54,AU,1686488366
16,puerto ayora,-0.7393,-90.3518,26.42,87,100,4.02,EC,1686488366
17,las vegas,36.175,-115.1372,24.27,23,0,8.94,US,1686488100
18,jamestown,42.097,-79.2353,20.77,76,0,2.57,US,1686488367
19,yellowknife,62.456,-114.3525,10.29,93,100,9.77,CA,1686488367
20,hilo,19.7297,-155.09,24.04,83,100,3.09,US,1686488088
21,shache,38.4167,77.2406,35.52,9,2,2.65,CN,1686488367
22,punta arenas,-53.15,-70.9167,3.06,60,40,12.86,CL,1686488335
23,invercargill,-46.4,168.35,6.79,90,30,4.02,NZ,1686488367
24,bethel,41.3712,-73.414,21.56,73,0,0.45,US,1686488367
25,praia da vitoria,38.7333,-27.0667,21.14,60,20,0.79,PT,1686488368
26,shahpur,16.7,76.8333,35.81,32,60,8.23,IN,1686488368
27,aljezur,37.3191,-8.8033,22.92,61,4,5.15,PT,1686488368
28,tsagan aman,47.5639,46.7218,32.08,19,100,7.43,RU,1686488368
29,papatowai,-46.5619,169.4708,8.68,90,13,3.51,NZ,1686488368
30,remire-montjoly,4.9167,-52.2667,29.02,79,20,1.54,GF,1686488368
31,tofol,5.3248,163.0078,28.57,74,24,8.34,FM,1686488368
32,puerto natales,-51.7236,-72.4875,4.25,65,75,9.26,CL,1686488369
33,kuala belait,4.5833,114.1833,29.09,79,100,1.65,BN,1686488369
34,mount pearl,47.5166,-52.7813,7.19,95,75,3.6,CA,1686488369
35,vorgashor,67.5833,63.95,3.15,83,100,10.13,RU,1686488369
36,sidi akkacha,36.4647,1.3026,31.16,46,17,3.57,DZ,1686488369
37,aasiaat,68.7098,-52.8699,0.37,87,99,2.41,GL,1686488369
38,yeppoon,-23.1333,150.7333,16.88,88,8,3.16,AU,1686488370
39,nova sintra,14.8667,-24.7167,22.46,81,86,7.09,CV,1686488370
40,tiksi,71.6872,128.8694,-0.27,98,100,4.95,RU,1686488370
41,labytnangi,66.6572,66.4183,8.24,81,100,5.98,RU,1686488370
42,iqaluit,63.7506,-68.5145,0.85,80,100,7.2,CA,1686488370
43,badger,64.8,-147.5333,12.51,75,100,4.12,US,1686488370
44,waitangi,-43.9535,-176.5597,10.46,67,100,5.04,NZ,1686488370
45,carnot-moon,40.5186,-80.2174,21.08,68,100,0.45,US,1686488370
46,udachny,66.4167,112.4,1.36,100,100,8.18,RU,1686488371
47,karratha,-20.7377,116.8463,22.34,50,0,3.98,AU,1686488371
48,port mathurin,-19.6833,63.4167,24.96,72,19,7.77,MU,1686488371
49,luderitz,-26.6481,15.1594,16.81,60,1,3.05,NA,1686488371
50,haiku-pauwela,20.9219,-156.3051,23.91,74,0,3.09,US,1686488371
51,atafu village,-8.5421,-172.5159,28.92,74,100,7.07,TK,1686488372
52,regina,50.4501,-104.6178,11.69,68,20,5.14,CA,1686488280
53,bilibino,68.0546,166.4372,16.25,48,100,2.36,RU,1686488372
54,stanley,54.868,-1.6985,22.63,65,0,3.09,GB,1686488372
55,sinabang,2.4803,96.3801,27.24,85,18,2.45,ID,1686488372
56,kolonia town,6.964,158.206,28.5,76,98,9.0,FM,1686488373
57,tual,-5.6667,132.75,27.13,83,100,7.91,ID,1686488373
58,ilulissat,69.2167,-51.1,0.19,94,100,1.42,GL,1686488373
59,al jawf,29.5,38.75,34.46,16,0,4.0,SA,1686488373
60,iskateley,67.6803,53.1512,4.95,58,94,7.07,RU,1686488373
61,yuzhno-kurilsk,44.0306,145.8556,10.73,99,100,3.39,RU,1686488373
62,greenville,35.6127,-77.3663,23.97,78,0,3.09,US,1686488204
63,lihue,21.9789,-159.3672,23.77,87,75,5.66,US,1686488374
64,yashikira,9.7667,3.4,31.56,48,80,2.65,NG,1686488374
65,mount isa,-20.7333,139.5,14.87,55,6,3.6,AU,1686488374
66,hawaiian paradise park,19.5933,-154.9731,21.73,91,100,3.09,US,1686488374
67,anadyr,64.75,177.4833,6.28,81,75,3.0,RU,1686488374
68,ryotsu-minato,38.0833,138.4333,19.61,89,100,1.2,JP,1686488374
69,bethanie,-26.4833,17.15,22.88,8,0,9.62,NA,1686488375
70,barclayville,4.6797,-8.2339,25.71,84,100,3.62,LR,1686488375
71,nar'yan-mar,67.6713,53.087,4.99,58,91,7.05,RU,1686488375
72,cam ranh,11.9214,109.1591,30.98,70,20,1.03,VN,1686488375
73,altagracia de orituco,9.8601,-66.3814,27.36,71,40,2.22,VE,1686488375
74,snowflake,34.5134,-110.0785,11.62,22,100,3.24,US,1686488375
75,ust-nera,64.5667,143.2,15.82,55,89,3.27,RU,1686488376
76,paratinga,-12.6906,-43.1842,29.72,30,0,2.16,BR,1686488376
77,port elizabeth,-33.918,25.5701,24.16,44,0,2.06,ZA,1686488376
78,susuman,62.7833,148.1667,14.04,53,99,2.47,RU,1686488376
79,tamanrasset,22.785,5.5228,37.95,17,4,2.57,DZ,1686488376
80,orchard mesa,39.043,-108.5523,19.12,42,0,3.6,US,1686488333
81,happy valley-goose bay,53.3168,-60.3315,8.17,87,75,4.12,CA,1686488376
82,tazacorte,28.629,-17.9293,24.54,80,20,3.58,ES,1686488376
83,siwa oasis,29.2041,25.5195,36.37,17,5,5.25,EG,1686488377
84,fale old settlement,-9.3852,-171.2468,28.74,76,87,6.22,TK,1686488377
85,nadi,-17.8,177.4167,23.0,68,75,4.12,FJ,1686488377
86,ponoka,52.6768,-113.5815,15.49,92,57,4.5,CA,1686488135
87,kapuskasing,49.4169,-82.4331,6.0,75,75,4.12,CA,1686488377
88,kavaratti,10.5669,72.642,29.5,77,100,9.69,IN,1686488377
89,kapa'a,22.0752,-159.319,24.18,87,75,5.66,US,1686488377
90,selfoss,63.9331,-20.9971,12.25,68,88,5.99,IS,1686488377
91,gunjur,13.2019,-16.7339,33.04,62,40,5.66,GM,1686488378
92,villanueva,15.3167,-88.0,28.91,83,20,0.0,HN,1686488349
93,jiangzi,28.95,89.6333,14.32,30,46,5.55,CN,1686488378
94,wailua homesteads,22.0669,-159.378,23.44,89,75,5.66,US,1686488378
95,chernyshevskiy,63.0128,112.4714,7.81,53,100,4.97,RU,1686488378
96,dudinka,69.4058,86.1778,13.68,30,28,7.06,RU,1686488333
97,qaqortoq,60.7167,-46.0333,5.75,67,7,1.9,GL,1686488378
98,el nido,11.1858,119.3956,28.48,79,100,4.88,PH,1686488378
99,djambala,-2.5447,14.7533,27.59,60,88,1.24,CG,1686488379
100,el porvenir,13.7617,-87.3458,23.63,90,99,0.85,HN,1686488379
101,utrik,11.2278,169.8474,27.57,82,85,8.72,MH,1686488379
102,klyuchi,52.2667,79.1667,21.23,38,0,4.78,RU,1686488379
103,villa vasquez,19.7411,-71.4464,28.49,71,53,3.0,DO,1686488379
104,tolanaro,-25.0319,46.9987,25.04,69,20,5.14,MG,1686488379
105,manta,-0.95,-80.7333,26.67,89,40,7.6,EC,1686488379
106,codrington,-38.2667,141.9667,9.02,75,5,4.6,AU,1686488379
107,nagqu,31.5,92.0,7.31,59,60,6.72,CN,1686488380
108,weining,26.85,104.2333,11.31,84,100,1.4,CN,1686488380
109,lebu,-37.6167,-73.65,7.32,72,23,7.23,CL,1686488380
110,qui nhon,13.7667,109.2333,30.08,66,100,4.89,VN,1686488380
111,sisimiut,66.9395,-53.6735,3.47,92,100,3.7,GL,1686488380
112,ak-suu,42.4995,78.527,21.83,60,41,2.49,KG,1686488380
113,yamada,39.4667,141.95,17.8,88,100,1.94,JP,1686488380
114,luang prabang,19.8856,102.1347,29.98,66,100,1.03,LA,1686488380
115,avarua,-21.2078,-159.775,20.03,100,0,0.51,CK,1686488359
116,kingston,17.997,-76.7936,29.0,94,40,1.03,JM,1686488088
117,diffa,13.3154,12.6113,34.65,37,98,2.0,NE,1686488381
118,augusto correa,-1.0217,-46.635,29.18,68,3,2.93,BR,1686488381
119,sechura,-5.5569,-80.8222,23.56,75,100,5.18,PE,1686488381
120,ribeira grande,38.5167,-28.7,20.22,73,20,4.12,PT,1686488381
121,jinxiang,27.4327,120.6062,24.59,89,24,3.2,CN,1686488381
122,gouyave,12.1646,-61.7296,28.43,79,20,5.66,GD,1686488381
123,as samawah,31.332,45.2944,43.29,12,0,3.66,IQ,1686488381
124,ampanihy,-24.7,44.75,23.55,59,93,4.72,MG,1686488382
125,matoury,4.8483,-52.3317,28.98,79,20,1.54,GF,1686488144
126,east london,-33.0153,27.9116,24.52,41,0,3.09,ZA,1686488382
127,deneysville,-26.8908,28.0971,19.35,9,0,5.44,ZA,1686488382
128,malango,-2.9627,119.9001,20.12,99,100,0.52,ID,1686488382
129,hithadhoo,-0.6,73.0833,28.77,72,42,3.1,MV,1686488382
130,ponta delgada,37.7333,-25.6667,19.4,72,20,7.2,PT,1686488296
131,bata,1.8639,9.7658,24.65,87,100,3.03,GQ,1686488382
132,ancud,-41.8697,-73.8203,5.65,80,100,2.79,CL,1686488383
133,gizo,-8.103,156.8419,27.71,78,97,2.07,SB,1686488383
134,petropavlovsk-kamchatsky,53.0452,158.6483,9.33,66,0,2.0,RU,1686488383
135,whitehorse,60.7161,-135.0538,5.43,65,20,2.06,CA,1686488130
136,posto fiscal rolim de moura,-13.0833,-62.2667,28.29,61,3,0.32,BR,1686488383
137,vung tau,10.346,107.0843,29.08,73,49,6.43,VN,1686488383
138,tejen,37.3834,60.5054,37.29,10,0,4.81,TM,1686488383
139,warendorf,51.95,7.9833,28.92,46,47,3.88,DE,1686488383
140,ayacucho,-13.1583,-74.2239,8.92,43,20,0.0,PE,1686488384
141,rio grande,-32.035,-52.0986,10.06,71,100,5.54,BR,1686488162
142,guarulhos,-23.4628,-46.5333,24.08,68,0,1.03,BR,1686488384
143,scottburgh,-30.2867,30.7532,20.2,64,0,6.5,ZA,1686488384
144,bahia honda,22.9036,-83.1592,26.94,81,1,2.29,CU,1686488384
145,segamat,2.5148,102.8158,26.38,76,99,1.8,MY,1686488384
146,merizo village,13.2658,144.6691,28.31,94,100,4.47,GU,1686488384
147,luanda,-8.8368,13.2343,26.0,73,20,5.14,AO,1686488258
148,la passe,45.5549,-0.8967,27.13,57,56,4.04,FR,1686488385
149,zaterechnyy,44.7931,45.2097,30.61,41,100,3.12,RU,1686488385
150,longyearbyen,78.2186,15.6401,5.91,75,75,4.12,SJ,1686488385
151,nemuro,43.3236,145.575,11.62,97,100,4.12,JP,1686488385
152,siyabuswa,-25.1132,29.0445,22.91,19,0,3.25,ZA,1686488385
153,port hedland,-20.3167,118.5667,21.03,78,42,3.6,AU,1686488385
154,vadso,70.0744,29.7487,20.49,47,99,4.63,NO,1686488385
155,san juan de miraflores,-12.1629,-76.9635,21.29,79,99,1.3,PE,1686488386
156,takoradi,4.8845,-1.7554,27.01,72,100,5.55,GH,1686488386
157,laayoune,27.1622,-13.2032,27.19,54,20,5.66,EH,1686488386
158,kodiak,57.79,-152.4072,7.12,90,100,9.54,US,1686488386
159,hadibu,12.65,54.0333,31.02,66,99,7.71,YE,1686488386
160,blantyre,-15.785,35.0085,22.34,64,75,4.12,MW,1686488386
161,puerto baquerizo moreno,-0.9,-89.6,25.43,77,100,6.48,EC,1686488386
162,talnakh,69.4865,88.3972,13.45,51,88,6.31,RU,1686488386
163,petrolina,-9.3986,-40.5008,25.03,69,75,5.14,BR,1686488239
164,bakanas,44.8081,76.2772,29.75,19,0,6.0,KZ,1686488387
165,jounieh,33.9808,35.6178,26.77,75,14,3.83,LB,1686488387
166,georgetown,5.4112,100.3354,30.96,72,20,2.06,MY,1686488169
167,jayapura,-2.5333,140.7,25.66,89,63,3.2,ID,1686488387
168,la ronge,55.1001,-105.2842,15.12,62,75,2.57,CA,1686488387
169,huarmey,-10.0681,-78.1522,21.76,81,95,4.14,PE,1686488387
170,chernyshevsk,52.5243,117.0174,19.32,49,6,1.44,RU,1686488387
171,kochubey,44.3861,46.5825,26.77,54,100,5.44,RU,1686488387
172,tomatlan,19.9333,-105.25,24.17,84,80,0.39,MX,1686488388
173,tutoia,-2.7619,-42.2744,28.78,69,0,4.89,BR,1686488388
174,newman,37.3138,-121.0208,14.05,54,60,1.91,US,1686488388
175,kragero,58.8693,9.4149,17.39,51,6,3.58,NO,1686488388
176,rabaul,-4.1967,152.1721,27.18,79,85,0.68,PG,1686488388
177,kenai,60.5544,-151.2583,9.52,70,0,6.17,US,1686488388
178,berkane,34.9084,-2.3461,31.82,42,0,4.18,MA,1686488388
179,kafir qala,34.6667,61.0667,33.98,10,0,9.13,AF,1686488388
180,tongliao,43.6125,122.2653,15.18,80,100,4.31,CN,1686488388
181,vigan,17.5747,120.3869,26.65,86,100,6.04,PH,1686488389
182,khandyga,62.6667,135.6,15.72,64,69,2.15,RU,1686488389
183,broken hill,-31.95,141.4333,12.97,52,96,3.67,AU,1686488389
184,bissora,12.2231,-15.4475,31.04,38,99,4.76,GW,1686488389
185,cruzeiro do sul,-29.5128,-51.9853,11.71,95,100,1.84,BR,1686488389
186,ellensburg,46.9965,-120.5479,12.7,89,6,0.89,US,1686488389
187,margaret river,-33.95,115.0667,13.65,58,100,8.29,AU,1686488389
188,tura,25.5198,90.2201,24.65,92,11,3.05,IN,1686488389
189,bredasdorp,-34.5322,20.0403,18.95,47,100,4.32,ZA,1686488390
190,hailsham,50.8622,0.2578,29.56,71,70,3.58,GB,1686488390
191,peniche,39.3558,-9.3811,24.05,77,3,6.04,PT,1686488390
192,west island,-12.1568,96.8225,26.99,78,75,11.02,CC,1686488390
193,aykhal,66.0,111.5,0.79,98,100,8.99,RU,1686488390
194,thompson,55.7435,-97.8558,14.09,58,40,2.06,CA,1686488390
195,choibalsan,48.0667,114.5,18.14,42,22,3.02,MN,1686488390
196,angaur state,6.906,134.13,28.84,78,99,5.5,PW,1686488390
197,port alfred,-33.5906,26.891,22.32,54,0,1.34,ZA,1686488391
198,farafangana,-22.8167,47.8333,23.74,78,1,2.29,MG,1686488391
199,balkanabat,39.5108,54.3671,37.19,12,0,5.44,TM,1686488391
200,howard springs,-12.497,131.047,23.95,57,6,1.31,AU,1686488391
201,brisas de zicatela,15.8369,-97.0419,27.29,83,40,2.57,MX,1686488391
202,port saint john's,-31.6229,29.5448,23.22,39,0,2.77,ZA,1686488391
203,staryy oskol,51.2967,37.8417,12.03,81,100,8.71,RU,1686488391
204,at taj,24.2049,23.2857,37.35,13,0,1.85,LY,1686488391
205,barcelos,41.5388,-8.6151,23.84,60,100,3.58,PT,1686488382
206,bastia,42.6667,9.3333,25.72,78,40,3.09,FR,1686488392
207,margate,51.3813,1.3862,23.82,63,14,2.71,GB,1686488340
208,kruisfontein,-34.0033,24.7314,22.16,28,0,2.53,ZA,1686488392
209,thief river falls,48.1191,-96.1812,13.53,76,0,2.06,US,1686488392
210,taltal,-25.4,-70.4833,16.04,75,100,1.26,CL,1686488392
211,hermanus,-34.4187,19.2345,19.33,63,100,8.28,ZA,1686488392
212,djibo,14.1022,-1.6306,37.58,27,79,4.28,BF,1686488392
213,sarandi del yi,-33.35,-55.6333,8.15,52,0,5.91,UY,1686488392
214,vodnyy,63.5046,53.4095,6.1,56,100,4.2,RU,1686488393
215,inarajan village,13.2736,144.7484,28.54,94,100,4.66,GU,1686488393
216,mejit,10.2753,170.8646,27.76,79,100,8.27,MH,1686488393
217,tyuratam,45.6507,63.3156,33.25,11,0,7.6,KZ,1686488393
218,vila velha,-20.3297,-40.2925,25.97,69,20,4.12,BR,1686488393
219,thunder bay,48.4001,-89.3168,5.99,93,20,2.06,CA,1686488370
220,mata-utu,-13.2816,-176.1745,28.18,80,10,7.41,WF,1686488393
221,villa regina,-39.1,-67.0667,3.88,58,0,7.17,AR,1686488393
222,lingyuan,41.24,119.4011,15.44,64,44,1.17,CN,1686488394
223,legionowo,52.4015,20.9266,25.75,33,0,7.72,PL,1686488394
224,st. john's,47.5649,-52.7093,8.49,93,75,3.09,CA,1686488178
225,dunkerque,50.8333,2.5,31.66,39,17,2.75,FR,1686488394
226,sambava,-14.2667,50.1667,26.08,71,11,4.43,MG,1686488394
227,vilyuchinsk,52.9306,158.4028,10.15,68,7,3.15,RU,1686488394
228,howrah,22.5892,88.3103,34.0,70,40,2.57,IN,1686488394
229,flying fish cove,-10.4217,105.6791,25.82,88,100,4.63,CX,1686488394
230,la foa,-21.7108,165.8276,19.45,71,1,2.4,NC,1686488395
231,parvatsar,26.8833,74.7667,38.74,22,0,6.7,IN,1686488395
232,puerto aysen,-45.4,-72.7,3.88,98,100,2.13,CL,1686488395
233,castillos,-34.1667,-53.8333,10.73,53,77,4.68,UY,1686488395
234,raipur,21.2333,81.6333,41.08,20,40,2.06,IN,1686488395
235,tikrit,34.6071,43.6782,39.2,14,2,4.08,IQ,1686488395
236,chonchi,-42.6128,-73.8092,4.51,91,100,1.17,CL,1686488395
237,nikolayevsk-on-amure,53.1406,140.73,9.8,99,100,1.14,RU,1686488395
238,salahonda,2.1019,-78.7217,26.2,83,15,1.84,CO,1686488396
239,prattville,32.464,-86.4597,23.14,94,100,0.0,US,1686488396
240,pisco,-13.7,-76.2167,17.79,82,100,1.03,PE,1686488396
241,pecan plantation,32.3604,-97.6756,25.25,82,0,2.57,US,1686488396
242,kone,-21.0595,164.8658,18.62,77,4,2.32,NC,1686488396
243,jataizinho,-23.2542,-50.98,21.32,83,0,2.06,BR,1686488396
244,quellon,-43.1167,-73.6167,6.14,93,100,2.57,CL,1686488396
245,serra,-20.1286,-40.3078,25.7,69,20,4.12,BR,1686488308
246,xianyang,34.3378,108.7026,28.58,51,0,1.0,CN,1686488397
247,murudeshwara,14.0943,74.4845,28.37,79,100,2.75,IN,1686488398
248,caleta olivia,-46.4393,-67.5281,4.09,57,9,5.32,AR,1686488292
249,isafjordur,66.0755,-23.124,14.02,44,0,5.14,IS,1686488398
250,nishinoomote,30.7333,131.0,23.66,90,89,7.43,JP,1686488398
251,visby,57.6409,18.296,20.12,30,0,5.66,SE,1686488398
252,vorkuta,67.5,64.0,3.02,85,100,10.18,RU,1686488398
253,zigong,29.3416,104.7769,24.1,63,100,2.44,CN,1686488398
254,port lincoln,-34.7333,135.8667,14.36,58,0,5.43,AU,1686488399
255,pacific grove,36.6177,-121.9166,12.79,89,100,2.06,US,1686488191
256,antonio enes,-16.2325,39.9086,27.57,55,0,4.22,MZ,1686488399
257,ar raqqah,35.95,39.0167,34.36,19,95,5.8,SY,1686488399
258,zaragoza,41.6561,-0.8773,28.58,43,20,0.89,ES,1686488198
259,tucuma,-0.1833,-50.05,27.49,83,0,3.2,BR,1686488107
260,pingliang,35.5392,106.6861,23.74,33,94,1.95,CN,1686488399
261,acapulco de juarez,16.8634,-99.8901,27.13,73,55,1.23,MX,1686488399
262,bosaso,11.2842,49.1816,33.99,70,20,3.6,SO,1686488400
263,acarau,-2.8856,-40.12,28.9,69,14,6.54,BR,1686488400
264,college,64.8569,-147.8028,12.55,73,100,3.6,US,1686488400
265,thisted,56.9552,8.6949,23.44,53,12,6.13,DK,1686488401
266,talcahuano,-36.7167,-73.1167,0.82,100,0,1.54,CL,1686488402
267,medina,24.4686,39.6142,41.24,10,0,4.63,SA,1686488313
268,kayangel,8.0823,134.7173,28.91,77,100,6.12,PW,1686488403
269,pudozh,61.8099,36.5345,18.18,34,93,3.38,RU,1686488406
270,banjar,-8.19,114.9675,27.44,76,16,2.65,ID,1686488407
271,port douglas,-16.4833,145.4667,20.67,95,70,1.88,AU,1686488408
272,segbwema,7.9967,-10.9496,29.4,70,68,2.39,SL,1686488408
273,alzamay,55.5562,98.6644,15.48,51,7,1.28,RU,1686488409
274,saint-philippe,-21.3585,55.7679,26.77,85,93,1.82,RE,1686488409
275,paphos,34.7667,32.4167,25.88,65,40,3.6,CY,1686488410
276,al mahwit,15.4701,43.5448,25.2,39,100,6.69,YE,1686488410
277,buka,40.8108,69.1986,38.55,16,0,1.15,UZ,1686488410
278,gulu,2.7746,32.299,22.64,78,100,2.76,UG,1686488411
279,usinsk,65.9939,57.5281,6.56,67,100,9.82,RU,1686488411
280,pirapora,-17.345,-44.9419,26.61,38,100,0.7,BR,1686488411
281,togur,58.3631,82.8265,20.92,38,15,4.24,RU,1686488411
282,tsetserleg,47.475,101.4542,16.94,59,15,2.68,MN,1686488411
283,puerto lempira,15.2667,-83.7667,26.08,83,0,0.0,HN,1686488411
284,san luis de la loma,17.2706,-100.8939,26.94,57,90,1.2,MX,1686488411
285,nuku'alofa,-21.1333,-175.2,17.19,100,20,0.51,TO,1686488412
286,jianshui,23.6363,102.8264,22.89,72,94,0.5,CN,1686488412
287,kourou,5.1552,-52.6478,29.03,80,100,2.49,GF,1686488412
288,serang,-6.1149,106.1502,27.07,75,19,0.99,ID,1686488412
289,nampa,43.5407,-116.5635,16.13,89,0,2.06,US,1686488217
290,fort bragg,35.139,-79.006,24.0,73,20,2.06,US,1686488413
291,amursk,50.2261,136.8994,13.4,97,99,1.67,RU,1686488413
292,xilin hot,43.9667,116.0333,14.48,58,98,2.65,CN,1686488314
293,berriane,32.8265,3.7669,32.47,23,0,4.38,DZ,1686488413
294,ilebo,-4.3167,20.5833,34.78,35,100,1.64,CD,1686488413
295,warman,52.3168,-106.5679,12.95,71,75,3.09,CA,1686488413
296,gadzhiyevo,69.2551,33.3362,8.15,81,66,4.23,RU,1686488413
297,constantia,44.1833,28.65,24.38,45,99,5.49,RO,1686488414
298,gornozavodsk,58.3758,58.3211,11.19,41,97,5.8,RU,1686488414
299,houghton,47.1219,-88.569,9.86,69,75,4.63,US,1686488414
300,bekalta,35.6174,10.9947,26.01,67,6,4.39,TN,1686488414
301,katabu,-4.9333,122.5167,23.8,87,100,2.09,ID,1686488415
302,tralee,52.2704,-9.7026,21.14,73,75,4.12,IE,1686488415
303,dabakala,8.3667,-4.4333,29.18,64,99,3.52,CI,1686488415
304,newport,51.5877,-2.9984,23.38,76,100,0.1,GB,1686488346
305,ebon,4.582,168.6964,28.0,79,99,5.6,MH,1686488416
306,uray,60.1247,64.7758,11.08,48,100,7.72,RU,1686488416
307,verkhnevilyuysk,63.4453,120.3167,16.18,59,100,4.68,RU,1686488416
308,pimentel,-6.8367,-79.9342,23.16,78,100,4.12,PE,1686488416
309,bratsk,56.1325,101.6142,16.27,48,0,2.26,RU,1686488417
310,westport,41.1415,-73.3579,22.94,73,100,0.89,US,1686488342
311,porecatu,-22.7558,-51.3792,22.74,55,5,2.94,BR,1686488417
312,naberera,-4.2,36.9333,25.51,32,13,4.09,TZ,1686488417
313,shimoda,34.6667,138.95,20.61,95,100,1.83,JP,1686488417
314,mount gambier,-37.8333,140.7667,8.19,80,5,2.48,AU,1686488418
315,uturoa,-16.7333,-151.4333,26.29,72,100,7.35,PF,1686488418
316,diego martin,10.7005,-61.5342,24.6,94,8,7.0,TT,1686488418
317,patong,7.8961,98.2966,31.68,99,100,4.04,TH,1686488418
318,masterton,-40.9597,175.6575,4.1,95,21,1.0,NZ,1686488171
319,carloforte,39.145,8.3058,22.23,83,100,5.18,IT,1686488418
320,xinxiang,35.3089,113.8672,23.35,62,7,7.59,CN,1686488418
321,seminole,28.7086,-81.2081,27.43,92,0,2.06,US,1686488318
322,bikenibeu village,1.3673,173.1241,26.98,89,75,1.03,KI,1686488419
323,laguna,38.421,-121.4238,14.54,88,0,3.6,US,1686488281
324,alice springs,-23.7,133.8833,16.75,62,100,2.57,AU,1686488419
325,vernon,50.2581,-119.2691,17.56,89,75,0.89,CA,1686488419
326,gutierrez zamora,20.45,-97.0833,28.9,88,100,2.06,MX,1686488420
327,kidal,18.4411,1.4078,40.52,19,17,6.13,ML,1686488421
328,n'djamena,12.1067,15.0444,35.98,41,75,5.14,TD,1686488411
329,arraial do cabo,-22.9661,-42.0278,22.98,83,0,2.06,BR,1686488421
330,santana,-0.0583,-51.1817,29.1,84,40,4.63,BR,1686488422
331,hamilton,39.1834,-84.5333,20.51,74,100,5.14,US,1686488297
332,paka,4.6374,103.4368,28.96,84,42,0.51,MY,1686488422
333,greymouth,-42.4667,171.2,11.64,79,100,3.04,NZ,1686488423
334,victorica,-36.2151,-65.4359,4.22,51,0,4.09,AR,1686488424
335,mujiayingzi,42.1167,118.7833,16.38,55,100,1.98,CN,1686488425
336,uzgen,40.7699,73.3007,31.16,24,0,3.67,KG,1686488426
337,santiago de cuba,20.0247,-75.8219,27.64,79,82,2.16,CU,1686488426
338,aweil,8.7682,27.4002,34.31,36,100,2.12,SS,1686488427
339,saipan,15.1355,145.701,27.39,100,75,6.69,MP,1686488427
340,vydrino,51.485,104.8461,12.16,85,38,5.38,RU,1686488427
341,jalqani,12.4486,34.2186,29.77,51,100,3.54,SD,1686488427
342,paita,-5.0892,-81.1144,23.02,84,100,5.72,PE,1686488428
343,anse a galets,18.8317,-72.8642,28.42,73,55,3.5,HT,1686488358
344,aksu,41.1231,80.2644,35.81,10,0,1.65,CN,1686488428
345,caiaponia,-16.9567,-51.8103,27.71,39,0,1.17,BR,1686488428
346,san martin,-33.081,-68.4681,2.3,44,100,0.77,AR,1686488428
347,fuglafjordur,62.244,-6.814,10.26,65,100,2.42,FO,1686488428
348,okhotsk,59.3833,143.3,6.81,89,44,2.39,RU,1686488429
349,garissa,-0.4536,39.6401,33.74,36,100,10.41,KE,1686488429
350,petrovsk-zabaykal'skiy,51.273,108.843,21.88,34,39,2.67,RU,1686488429
351,majene,-3.5403,118.9707,27.61,81,100,8.24,ID,1686488429
352,ibaiti,-23.8486,-50.1878,18.85,64,6,1.57,BR,1686488430
353,portland,45.5234,-122.6762,14.17,91,43,2.24,US,1686488400
354,enewetak,11.3474,162.3373,27.84,81,100,6.46,MH,1686488430
355,cerritos,33.8583,-118.0648,16.99,90,100,1.54,US,1686488430
356,fraserburgh,57.6874,-2.0184,18.57,80,100,6.62,GB,1686488430
357,illizi,26.4833,8.4667,43.89,6,0,5.98,DZ,1686488430
358,suihua,46.6406,126.9969,16.16,84,96,2.79,CN,1686488431
359,bloomfield,40.8068,-74.1854,23.74,73,0,0.0,US,1686488431
360,touros,-5.1989,-35.4608,26.98,79,62,8.55,BR,1686488431
361,sabang,5.8933,95.3214,28.81,78,100,8.23,ID,1686488431
362,metlili chaamba,32.2667,3.6333,32.52,25,0,6.17,DZ,1686488431
363,bossangoa,6.4926,17.4552,34.45,38,100,1.88,CF,1686488431
364,bargaal,11.2864,51.0773,38.22,29,100,6.61,SO,1686488432
365,markala,13.7021,-6.0659,39.02,26,100,3.72,ML,1686488432
366,pangody,65.85,74.4859,13.42,52,93,7.24,RU,1686488432
367,dubbo,-32.25,148.6167,5.07,87,13,2.57,AU,1686488201
368,fatehabad,29.5167,75.45,40.71,21,0,5.89,IN,1686488432
369,valparaiso,-33.0393,-71.6273,4.8,93,0,1.54,CL,1686488395
370,canico,32.6333,-16.85,27.06,80,40,3.6,PT,1686488432
371,naze,28.3667,129.4833,23.51,90,6,5.15,JP,1686488432
372,las heras,-46.5419,-68.9359,0.55,76,2,4.72,AR,1686488433
373,albertina,-22.2008,-46.6158,22.8,40,5,2.14,BR,1686488433
374,jutai,-5.1833,-68.9,25.34,91,80,0.88,BR,1686488433
375,yangjiang,21.85,111.9667,26.48,89,99,1.08,CN,1686488433
376,biograd na moru,43.9433,15.4519,21.39,67,30,6.25,HR,1686488434
377,ngereklmadel,7.4883,134.4856,28.79,79,100,5.78,PW,1686488434
378,riberalta,-10.9833,-66.1,24.11,88,40,5.66,BO,1686488434
379,boa vista,2.8197,-60.6733,24.99,94,40,2.57,BR,1686488434
380,hami,42.8,93.45,36.64,8,3,3.58,CN,1686488434
381,longboat key,27.4125,-82.659,29.48,73,0,2.51,US,1686488434
382,filadelfia,39.9523,-75.1638,24.47,66,40,2.06,US,1686488292
383,uusikaupunki,60.8004,21.4084,10.54,74,99,5.46,FI,1686488435
384,coquimbo,-29.9533,-71.3436,9.85,93,0,0.0,CL,1686488435
385,tangalle,6.024,80.7911,31.09,79,100,4.17,LK,1686488435
386,ulsteinvik,62.3432,5.8487,22.5,49,100,4.02,NO,1686488436
387,nuuk,64.1835,-51.7216,3.34,93,75,10.8,GL,1686488436
388,bamboo flat,11.7,92.7167,29.05,84,75,5.14,IN,1686488436
389,uliastay,47.7417,96.8444,21.4,38,9,1.83,MN,1686488436
390,ta`u,-14.2336,-169.5144,27.77,75,100,7.48,AS,1686488437
391,kununurra,-15.7667,128.7333,21.99,73,5,1.54,AU,1686488437
392,linghai,41.1653,121.3667,19.17,58,44,1.74,CN,1686488437
393,carnarvon,-24.8667,113.6333,20.14,70,0,10.9,AU,1686488437
394,eureka,40.8021,-124.1637,12.6,94,31,0.45,US,1686488438
395,morrope,-6.5417,-80.0111,23.06,85,100,6.05,PE,1686488438
396,la'ie,21.6477,-157.9253,24.14,78,5,2.68,US,1686488438
397,qamdo,31.1667,97.2333,5.34,76,100,1.49,CN,1686488438
398,marsh harbour,26.5412,-77.0636,27.81,71,0,3.57,BS,1686488438
399,san luis,-33.295,-66.3356,5.99,34,2,0.83,AR,1686488190
400,mili,6.0815,171.735,27.79,82,100,7.76,MH,1686488439
401,saynshand,44.8824,110.1163,21.68,35,61,5.25,MN,1686488439
402,bodaybo,57.8506,114.1933,18.7,94,100,1.06,RU,1686488439
403,linden,6.0,-58.3,27.28,84,22,0.49,GY,1686488439
404,cooper's town,26.8667,-77.5167,27.77,70,0,4.1,BS,1686488439
405,manjeshvar,12.7,74.8833,26.66,80,100,4.35,IN,1686488439
406,minas de marcona,-15.2119,-75.1103,13.86,77,17,2.33,PE,1686488439
407,vila franca do campo,37.7167,-25.4333,19.23,56,100,2.64,PT,1686488440
408,melendugno,40.2747,18.3368,27.05,61,75,4.12,IT,1686488440
409,miri,4.4148,114.0089,29.08,84,40,1.54,MY,1686488440
410,hassleholm,56.1591,13.7664,20.88,25,0,5.89,SE,1686488440
411,loukhi,66.0764,33.0381,20.35,34,99,4.13,RU,1686488440
412,popondetta,-8.7537,148.2534,23.28,98,100,1.22,PG,1686488440
413,kemijarvi,66.7131,27.4306,22.41,35,70,6.11,FI,1686488440
414,fort mcmurray,56.7268,-111.381,13.77,82,0,3.09,CA,1686488411
415,manacapuru,-3.2997,-60.6206,26.86,79,100,1.75,BR,1686488441
416,vuktyl,63.8567,57.3094,3.94,96,100,5.18,RU,1686488441
417,tanout,14.9709,8.8879,34.7,34,82,3.81,NE,1686488441
418,port augusta,-32.5,137.7667,11.94,49,6,4.15,AU,1686488202
419,hereford,52.0568,-2.7148,25.12,79,82,0.95,GB,1686488441
420,ghat,24.9647,10.1728,43.32,8,10,7.1,LY,1686488441
421,retreat,38.8245,-85.8533,17.75,98,100,2.23,US,1686488442
422,santo antonio,-6.3106,-35.4789,27.25,69,100,5.97,BR,1686488442
423,murzuq,25.9155,13.9184,42.45,10,0,7.31,LY,1686488442
424,polyarnyy,69.1989,33.4478,16.95,39,68,0.82,RU,1686488442
425,santa cruz,-17.8,-63.1667,19.03,88,100,6.69,BO,1686488404
426,mbouda,5.6258,10.2552,22.1,85,100,1.11,CM,1686488442
427,tazovsky,67.4667,78.7,8.73,89,100,9.73,RU,1686488442
428,cockburn town,21.4612,-71.1419,27.91,86,19,7.47,TC,1686488443
429,nadym,65.5333,72.5167,12.64,52,55,7.66,RU,1686488443
430,mangrol,21.1167,70.1167,29.9,69,100,11.44,IN,1686488443
431,qarchak,35.4394,51.5689,30.17,19,100,9.31,IR,1686488443
432,kirchberg,50.6167,12.5333,26.53,43,7,7.23,DE,1686488444
433,vallenar,-28.5708,-70.7581,14.15,64,0,1.02,CL,1686488404
434,igarka,67.4667,86.5833,14.31,37,100,6.15,RU,1686488444
435,vetluga,57.8557,45.781,15.26,33,69,3.06,RU,1686488444
436,ursulo galvan,22.7333,-98.3,27.96,90,72,3.28,MX,1686488444
437,askoy,60.4092,5.226,24.97,37,0,5.66,NO,1686488444
438,saldanha,-33.0117,17.9442,14.03,92,100,9.97,ZA,1686488444
439,geraldton,-28.7667,114.6,16.23,59,100,5.14,AU,1686488445
440,rongelap,11.1635,166.8941,27.64,83,100,8.14,MH,1686488445
441,san antonio de pale,-1.4014,5.6325,25.74,79,100,4.4,GQ,1686488445
442,salekhard,66.53,66.6019,8.27,79,100,6.42,RU,1686488445
443,belyy yar,53.6039,91.3903,18.94,52,0,4.0,RU,1686488445
444,namibe,-15.1961,12.1522,18.35,85,6,7.62,AO,1686488445
445,luanco,43.6152,-5.7934,24.7,78,12,6.23,ES,1686488446
446,upata,8.0086,-62.3989,26.22,61,88,1.44,VE,1686488446
447,colac,-38.3333,143.5833,10.09,71,100,3.13,AU,1686488446
448,augustow,53.8432,22.9798,20.69,34,5,5.87,PL,1686488447
449,marquette,46.5333,-87.6335,5.99,91,1,1.79,US,1686488447
450,bel ombre,-4.6167,55.4167,26.91,83,40,5.14,SC,1686488447
451,bandar-e genaveh,29.5791,50.517,40.01,16,0,10.72,IR,1686488447
452,new norfolk,-42.7826,147.0587,9.84,84,99,0.45,AU,1686488447
453,tayshet,55.9342,98.0044,15.01,49,3,2.46,RU,1686488447
454,vrangel',42.7297,133.0839,13.18,97,100,5.05,RU,1686488448
455,utran,21.2333,72.8667,31.94,62,100,7.72,IN,1686488448
456,neiafu,-18.65,-173.9833,21.38,94,20,0.0,TO,1686488448
457,kerikeri,-35.2268,173.9474,6.06,92,2,1.82,NZ,1686488448
458,agadez,19.75,10.25,41.35,14,0,1.36,NE,1686488448
459,bousse,12.6606,-1.8922,33.82,37,100,4.81,BF,1686488448
460,palmerston,-12.486,130.9833,23.99,70,0,2.06,AU,1686488448
461,teknaf,20.8624,92.3058,27.18,88,100,3.81,BD,1686488449
462,kot mumin,32.1895,73.028,40.83,20,0,2.5,PK,1686488449
463,goundam,16.4145,-3.6708,41.28,14,11,2.03,ML,1686488449
464,cidreira,-30.1811,-50.2056,11.53,97,100,1.97,BR,1686488449
465,padang,-0.9492,100.3543,27.03,87,10,1.33,ID,1686488449
466,menongue,-14.6585,17.691,30.76,13,10,1.36,AO,1686488449
467,pemangkat,1.1667,108.9667,29.37,74,6,3.96,ID,1686488450
468,kalix,65.853,23.1565,20.59,39,39,5.46,SE,1686488450
469,mugia,43.1041,-9.2179,22.17,88,100,8.12,ES,1686488450
470,trairi,-3.2778,-39.2689,30.53,58,1,4.84,BR,1686488450
471,kingscliff,-28.2667,153.5667,14.85,94,0,1.54,AU,1686488450
472,yachimata,35.65,140.3167,21.76,98,75,1.54,JP,1686488450
473,cestos city,5.46,-9.5828,26.27,83,73,4.97,LR,1686488450
474,mosjoen,65.836,13.1908,15.29,67,75,5.36,NO,1686488451
475,nantucket,41.2835,-70.0995,20.64,81,5,2.27,US,1686488451
476,el kala,36.8956,8.4433,23.23,77,6,3.37,DZ,1686488451
477,nchelenge,-9.3451,28.734,24.67,52,18,3.54,ZM,1686488451
478,sarande,39.8756,20.0053,28.85,58,28,2.51,AL,1686488451
479,colonia,50.9333,6.95,31.03,33,0,4.63,DE,1686488193
480,lagunas,-5.2269,-75.6753,24.08,92,37,0.66,PE,1686488451
481,mersing,2.4312,103.8405,27.95,83,20,1.54,MY,1686488451
482,barakani,-12.1356,44.4317,26.68,68,0,6.55,KM,1686488452
483,khovd,48.0056,91.6419,26.14,30,85,4.78,MN,1686488452
484,palikir - national government center,6.9248,158.1611,27.85,76,95,8.83,FM,1686488452
485,hovd,48.0056,91.6419,26.14,30,85,4.78,MN,1686488452
486,gornopravdinsk,60.05,69.9,13.05,49,7,5.65,RU,1686488452
487,dwarka,22.2394,68.9678,29.67,79,100,12.94,IN,1686488452
488,tvoroyri,61.5556,-6.8111,9.28,87,100,3.59,FO,1686488453
489,bonthe,7.5264,-12.505,27.73,72,100,1.89,SL,1686488453
490,tchintabaraden,15.8969,5.7985,38.46,24,5,4.23,NE,1686488453
491,paragominas,-2.9667,-47.4833,28.84,65,0,2.05,BR,1686488453
492,hobyo,5.3505,48.5268,29.72,62,100,12.83,SO,1686488453
493,kristiansund,63.1115,7.732,20.03,55,0,6.17,NO,1686488453
494,ola,59.5833,151.2833,6.27,94,100,1.35,RU,1686488454
495,daoukro,7.0591,-3.9631,23.27,97,100,1.57,CI,1686488454
496,elliot lake,46.3834,-82.6331,7.63,83,100,4.39,CA,1686488454
497,kodinsk,58.6881,99.1844,14.07,46,0,2.06,RU,1686488454
498,port lavaca,28.615,-96.6261,28.36,86,0,2.57,US,1686488454
499,risalpur cantonment,34.0619,71.9917,34.32,16,0,1.41,PK,1686488454
500,crane,31.3974,-102.3501,25.33,50,0,2.64,US,1686488454
501,luchegorsk,46.4764,134.2569,17.24,85,100,1.61,RU,1686488454
502,merowe,18.4833,31.8167,40.95,12,99,0.88,SD,1686488455
503,forster,-32.1667,152.5167,11.86,93,55,1.84,AU,1686488455
504,eagle river,45.9172,-89.2443,6.95,78,0,0.89,US,1686488455
505,bodo,67.28,14.405,17.75,53,0,10.8,NO,1686488455
506,zouerate,22.7187,-12.4521,34.03,19,0,4.89,MR,1686488455
507,nouadhibou,20.931,-17.0347,21.02,83,0,10.22,MR,1686488455
508,boguchany,58.3814,97.4531,14.78,45,0,1.9,RU,1686488455
509,borzya,50.3833,116.5167,19.03,48,46,1.57,RU,1686488456
510,pangkalanbuun,-2.6833,111.6167,24.26,96,98,1.73,ID,1686488456
511,koscierzyna,54.1223,17.9812,18.84,30,1,5.71,PL,1686488456
512,harper,4.375,-7.7169,24.44,89,100,2.65,LR,1686488456
513,adamovka,51.5223,59.9396,29.01,22,71,3.41,RU,1686488456
514,pyay,18.8167,95.2167,29.89,56,10,2.09,MM,1686488456
515,dolbeau-mistassini,48.8763,-72.212,15.36,71,100,1.86,CA,1686488456
516,bardsir,29.9227,56.5743,28.36,18,90,2.63,IR,1686488168
517,ontario,34.0633,-117.6509,15.94,90,100,3.6,US,1686488380
518,ca mau,9.1769,105.15,27.02,84,97,1.85,VN,1686488457
519,moab,38.5733,-109.5498,18.29,41,81,3.31,US,1686488457
520,kalmunai,7.4167,81.8167,30.61,67,98,2.08,LK,1686488457
521,hammerfest,70.6634,23.6821,19.25,32,0,4.63,NO,1686488434
522,lorengau,-2.0226,147.2712,27.43,81,55,3.55,PG,1686488457
523,sao vicente,-23.9631,-46.3919,27.98,45,0,1.34,BR,1686488458
524,prince rupert,54.3161,-130.3201,10.83,97,100,2.57,CA,1686488458
525,saint-francois,46.4154,3.9054,25.69,57,20,4.12,FR,1686488458
526,isangel,-19.55,169.2667,19.06,88,20,0.0,VU,1686488458
527,dame-marie,18.5667,-74.4167,27.21,77,12,0.56,HT,1686488458
528,general pico,-35.6566,-63.7568,4.6,46,0,3.44,AR,1686488458
529,fuyang,32.9,115.8167,27.94,39,69,5.36,CN,1686488426
530,weno,7.4515,151.8468,27.52,82,100,7.17,FM,1686488459
531,mossel bay,-34.1831,22.146,19.96,34,5,2.49,ZA,1686488459
532,urcos,-13.6861,-71.6228,5.94,72,75,0.63,PE,1686488459
533,cabo san lucas,22.8909,-109.9124,26.17,43,0,4.12,MX,1686488403
534,paracuru,-3.41,-39.0306,28.39,66,19,5.66,BR,1686488460
535,ketchikan,55.3422,-131.6461,10.99,85,23,1.62,US,1686488460
536,qarauyl,48.9451,79.255,20.22,32,5,8.19,KZ,1686488460
537,codajas,-3.8367,-62.0569,26.67,85,97,0.5,BR,1686488460
538,arno,60.1167,18.6333,12.66,34,7,5.48,SE,1686488461
539,riachao das neves,-11.7461,-44.91,28.64,37,0,3.0,BR,1686488462
540,kapustin yar,48.5831,45.7372,25.96,42,100,11.81,RU,1686488464
541,harrismith,-28.2728,29.1295,17.17,16,0,7.5,ZA,1686488464
542,alofi,-19.0595,-169.9187,22.94,94,87,3.6,NU,1686488465
543,sankheda,22.1667,73.5833,37.88,37,80,9.45,IN,1686488465
544,ndioum,16.5129,-14.6471,42.94,11,34,6.93,SN,1686488466
545,broome,42.2506,-75.833,20.61,82,100,1.34,US,1686488466
546,adiake,5.2863,-3.304,26.03,82,100,4.5,CI,1686488466
547,gillette,44.2911,-105.5022,11.64,94,0,2.06,US,1686488466
548,fortuna,40.5982,-124.1573,12.18,95,100,1.54,US,1686488466
549,ujae,8.9322,165.7642,28.2,78,100,7.14,MH,1686488467
550,fort st. john,56.2499,-120.8529,14.94,58,75,5.14,CA,1686488467
551,selkirk,50.1436,-96.8845,16.72,79,4,1.65,CA,1686488467
552,herisau,47.3862,9.2792,25.1,61,30,3.78,CH,1686488468
553,arkhangel'sk,64.5401,40.5433,15.82,41,100,1.18,RU,1686488468
554,mitsamiouli,-11.3847,43.2844,31.16,58,20,7.72,KM,1686488468
555,natal,-5.795,-35.2094,24.36,94,75,4.63,BR,1686488471
556,nyandoma,61.669,40.1991,14.43,39,100,2.33,RU,1686488471
